{"meta":{"code":200},"response":{"neighborhoods":[],"venues":[{"id":"4c042fe239d476b03b2931a7","name":"Berlin-Mitte","contact":{},"location":{"lat":52.51794445749753,"lng":13.402419090270994,"distance":216,"postalCode":"10119","cc":"DE","city":"Berlin","state":"Berlin","country":"Germany"},"categories":[{"id":"4f2a25ac4b909258e854f55f","name":"Neighborhood","pluralName":"Neighborhoods","shortName":"Neighborhood","icon":{"prefix":"https:\/\/ss1.4sqi.net\/img\/categories_v2\/parks_outdoors\/neighborhood_","suffix":".png"},"primary":true}],"verified":false,"restricted":true,"stats":{"checkinsCount":4487,"usersCount":1430,"tipCount":14},"url":"http:\/\/de.wikipedia.org\/wiki\/berlin-mitte","specials":{"count":0,"items":[]},"hereNow":{"count":1,"groups":[{"type":"others","name":"Other people here","count":1,"items":[]}]},"referralId":"v-1383781076"},{"id":"4adcda7cf964a520534721e3","name":"Berliner Dom","contact":{},"location":{"address":"Am Lustgarten 1","lat":52.51850626869271,"lng":13.400524183065595,"distance":207,"postalCode":"10178","cc":"DE","city":"Berlin","country":"Germany"},"categories":[{"id":"4bf58dd8d48988d132941735","name":"Church","pluralName":"Churches","shortName":"Church","icon":{"prefix":"https:\/\/ss1.4sqi.net\/img\/categories_v2\/building\/religious_church_","suffix":".png"},"primary":true}],"verified":false,"restricted":true,"stats":{"checkinsCount":7137,"usersCount":6127,"tipCount":55},"url":"http:\/\/www.berlinerdom.de","specials":{"count":0,"items":[]},"hereNow":{"count":0,"groups":[]},"referralId":"v-1383781076"},{"id":"4adcda80f964a5201c4821e3","name":"Museumsinsel (Museum Island)","contact":{},"location":{"address":"Am Lustgarten 1","lat":52.519371375135286,"lng":13.399336871878868,"distance":304,"postalCode":"10117","cc":"DE","city":"Berlin","country":"Germany"},"categories":[{"id":"50aaa4314b90af0d42d5de10","name":"Island","pluralName":"Islands","shortName":"Island","icon":{"prefix":"https:\/\/ss1.4sqi.net\/img\/categories_v2\/parks_outdoors\/neighborhood_","suffix":".png"},"primary":true}],"verified":false,"restricted":true,"stats":{"checkinsCount":4078,"usersCount":3402,"tipCount":34},"specials":{"count":0,"items":[]},"hereNow":{"count":0,"groups":[]},"referralId":"v-1383781076"},{"id":"4dd3fbcce4cd6154148baeb9","name":"Humboldt-Box","contact":{},"location":{"address":"Schloßplatz 5","crossStreet":"Unter Den Linden","lat":52.517422163556766,"lng":13.40057373046875,"distance":92,"postalCode":"10178","cc":"DE","city":"Berlin","country":"Germany"},"categories":[{"id":"4bf58dd8d48988d1f1931735","name":"General Entertainment","pluralName":"General Entertainment","shortName":"Entertainment","icon":{"prefix":"https:\/\/ss1.4sqi.net\/img\/categories_v2\/arts_entertainment\/default_","suffix":".png"},"primary":true}],"verified":false,"restricted":true,"stats":{"checkinsCount":917,"usersCount":789,"tipCount":15},"url":"http:\/\/www.humboldt-box.com","specials":{"count":0,"items":[]},"hereNow":{"count":0,"groups":[]},"referralId":"v-1383781076"},{"id":"4adcda83f964a520aa4821e3","name":"Deutsches Historisches Museum","contact":{"phone":"+4930203040","formattedPhone":"+49 30 203040"},"location":{"address":"Unter den Linden 2","crossStreet":"Zeughaus","lat":52.517722483331326,"lng":13.397108316421509,"distance":228,"postalCode":"10117","cc":"DE","city":"Berlin","country":"Germany"},"categories":[{"id":"4bf58dd8d48988d190941735","name":"History Museum","pluralName":"History Museums","shortName":"History Museum","icon":{"prefix":"https:\/\/ss1.4sqi.net\/img\/categories_v2\/arts_entertainment\/museum_history_","suffix":".png"},"primary":true}],"verified":false,"restricted":true,"stats":{"checkinsCount":2431,"usersCount":2211,"tipCount":28},"specials":{"count":0,"items":[]},"hereNow":{"count":0,"groups":[]},"referralId":"v-1383781076"},{"id":"4adcda7cf964a5205f4721e3","name":"Lustgarten","contact":{},"location":{"address":"Am Lustgarten","lat":52.51857085263326,"lng":13.399780305381821,"distance":212,"postalCode":"10178","cc":"DE","city":"Berlin","state":"Berlin","country":"Germany"},"categories":[{"id":"4bf58dd8d48988d163941735","name":"Park","pluralName":"Parks","shortName":"Park","icon":{"prefix":"https:\/\/ss1.4sqi.net\/img\/categories_v2\/parks_outdoors\/park_","suffix":".png"},"primary":true}],"verified":false,"restricted":true,"stats":{"checkinsCount":2529,"usersCount":1926,"tipCount":15},"specials":{"count":0,"items":[]},"hereNow":{"count":0,"groups":[]},"referralId":"v-1383781076"},{"id":"4f37d449e4b0a1f1973bbb4a","name":"Schleusenbrücke","contact":{},"location":{"address":"Werderstr.","crossStreet":"Schlosspl.","lat":52.51585524448182,"lng":13.399779796600342,"distance":91,"postalCode":"10117","cc":"DE","city":"Berlin","state":"BE","country":"Germany"},"categories":[{"id":"4bf58dd8d48988d1df941735","name":"Bridge","pluralName":"Bridges","shortName":"Bridge","icon":{"prefix":"https:\/\/ss1.4sqi.net\/img\/categories_v2\/parks_outdoors\/bridge_","suffix":".png"},"primary":true}],"verified":false,"restricted":true,"stats":{"checkinsCount":64,"usersCount":27,"tipCount":0},"url":"http:\/\/de.wikipedia.org\/wiki\/Schleusenbrücke_(Berlin)","specials":{"count":0,"items":[]},"hereNow":{"count":0,"groups":[]},"referralId":"v-1383781076"},{"id":"4af7ed56f964a520880a22e3","name":"ARCOTEL John F Berlin","contact":{"phone":"+49304050460","formattedPhone":"+49 30 4050460","twitter":"arcoteljohnf"},"location":{"address":"Werderscher Markt 11","lat":52.51524151928166,"lng":13.397752046585083,"distance":219,"postalCode":"10117","cc":"DE","city":"Berlin","state":"Berlin","country":"Germany"},"categories":[{"id":"4bf58dd8d48988d1fa931735","name":"Hotel","pluralName":"Hotels","shortName":"Hotel","icon":{"prefix":"https:\/\/ss1.4sqi.net\/img\/categories_v2\/travel\/hotel_","suffix":".png"},"primary":true}],"verified":true,"restricted":true,"stats":{"checkinsCount":1310,"usersCount":596,"tipCount":18},"url":"http:\/\/www.arcotelhotels.com\/en\/john_f_hotel_berlin\/","specials":{"count":0,"items":[]},"hereNow":{"count":2,"groups":[{"type":"others","name":"Other people here","count":2,"items":[]}]},"storeId":"","referralId":"v-1383781076"},{"id":"4b169bfbf964a520ddba23e3","name":"Auswärtiges Amt","contact":{"phone":"+493050000","formattedPhone":"+49 30 50000","twitter":"auswaertigesamt"},"location":{"address":"Werderscher Markt 1","crossStreet":"Unterwasserstr.","lat":52.51537209982938,"lng":13.398427963256836,"distance":179,"postalCode":"10117","cc":"DE","city":"Berlin","state":"Berlin","country":"Germany"},"categories":[{"id":"4bf58dd8d48988d126941735","name":"Government Building","pluralName":"Government Buildings","shortName":"Government","icon":{"prefix":"https:\/\/ss1.4sqi.net\/img\/categories_v2\/building\/government_","suffix":".png"},"primary":true}],"verified":false,"restricted":true,"stats":{"checkinsCount":729,"usersCount":440,"tipCount":3},"specials":{"count":0,"items":[]},"hereNow":{"count":0,"groups":[]},"referralId":"v-1383781076"},{"id":"4b24db17f964a5202f6a24e3","name":"Radisson Blu","contact":{"phone":"+4930238280","formattedPhone":"+49 30 238280"},"location":{"address":"Karl-Liebknecht-Strasse 3","lat":52.519315449552046,"lng":13.402934074401855,"distance":355,"postalCode":"10178","cc":"DE","city":"Berlin","country":"Germany"},"categories":[{"id":"4bf58dd8d48988d1fa931735","name":"Hotel","pluralName":"Hotels","shortName":"Hotel","icon":{"prefix":"https:\/\/ss1.4sqi.net\/img\/categories_v2\/travel\/hotel_","suffix":".png"},"primary":true}],"verified":true,"restricted":true,"stats":{"checkinsCount":4448,"usersCount":2155,"tipCount":49},"url":"http:\/\/www.radissonblu.com\/hotel-berlin","specials":{"count":0,"items":[]},"hereNow":{"count":1,"groups":[{"type":"others","name":"Other people here","count":1,"items":[]}]},"storeId":"BGMY","referralId":"v-1383781076"},{"id":"4f806998e4b0fdf501522d4e","name":"Schlossbrücke","contact":{},"location":{"address":"Unter den Linden","crossStreet":"Schlosspl.","lat":52.517720473161994,"lng":13.398533280491918,"distance":153,"postalCode":"10178","cc":"DE","city":"Berlin","state":"BE","country":"Germany"},"categories":[{"id":"4bf58dd8d48988d1df941735","name":"Bridge","pluralName":"Bridges","shortName":"Bridge","icon":{"prefix":"https:\/\/ss1.4sqi.net\/img\/categories_v2\/parks_outdoors\/bridge_","suffix":".png"},"primary":true}],"verified":false,"restricted":true,"stats":{"checkinsCount":351,"usersCount":270,"tipCount":2},"url":"http:\/\/de.wikipedia.org\/wiki\/Schlossbrücke_(Berlin-Mitte)","specials":{"count":0,"items":[]},"hereNow":{"count":0,"groups":[]},"referralId":"v-1383781076"},{"id":"4ae9c897f964a52062b621e3","name":"DDR Museum","contact":{"phone":"+4930847123731","formattedPhone":"+49 30 847123731","twitter":"ddrmuseum"},"location":{"address":"Karl-Liebknecht-Str. 1","lat":52.51941990433557,"lng":13.40233325958252,"distance":344,"postalCode":"10178","cc":"DE","city":"Berlin","country":"Germany"},"categories":[{"id":"4bf58dd8d48988d181941735","name":"Museum","pluralName":"Museums","shortName":"Museum","icon":{"prefix":"https:\/\/ss1.4sqi.net\/img\/categories_v2\/arts_entertainment\/museum_","suffix":".png"},"primary":true}],"verified":true,"restricted":true,"stats":{"checkinsCount":3859,"usersCount":3012,"tipCount":57},"url":"http:\/\/www.ddr-museum.de","specials":{"count":1,"items":[{"id":"4dc95a70b3ada60bb0f50bb6","type":"frequency","message":"Get your entrance ticket for the reduced fee (4 \u20ac instead of 6 \u20ac) when you're checked in!","description":"Unlocked every check-in","icon":"check-in","title":"Check-in Special","provider":"foursquare","redemption":"standard"}]},"hereNow":{"count":0,"groups":[]},"venuePage":{"id":"48098990"},"storeId":"","referralId":"v-1383781076"},{"id":"4b4cd68cf964a5200ac126e3","name":"Schlossplatz","contact":{},"location":{"address":"Schloßplatz 1","lat":52.51738299126093,"lng":13.401238918304443,"distance":115,"postalCode":"10178","cc":"DE","city":"Berlin","state":"Berlin","country":"Germany"},"categories":[{"id":"4bf58dd8d48988d164941735","name":"Plaza","pluralName":"Plazas","shortName":"Plaza","icon":{"prefix":"https:\/\/ss1.4sqi.net\/img\/categories_v2\/parks_outdoors\/plaza_","suffix":".png"},"primary":true}],"verified":false,"restricted":true,"stats":{"checkinsCount":649,"usersCount":396,"tipCount":5},"url":"http:\/\/de.wikipedia.org\/wiki\/Schloßplatz_(Berlin)","specials":{"count":0,"items":[]},"hereNow":{"count":0,"groups":[]},"referralId":"v-1383781076"},{"id":"4adcda81f964a520574821e3","name":"Altes Museum","contact":{},"location":{"address":"Am Lustgarten 1","lat":52.51925669362717,"lng":13.399028778076172,"distance":295,"postalCode":"10178","cc":"DE","city":"Berlin","country":"Germany"},"categories":[{"id":"4bf58dd8d48988d190941735","name":"History Museum","pluralName":"History Museums","shortName":"History Museum","icon":{"prefix":"https:\/\/ss1.4sqi.net\/img\/categories_v2\/arts_entertainment\/museum_history_","suffix":".png"},"primary":true}],"verified":false,"restricted":true,"stats":{"checkinsCount":1164,"usersCount":1082,"tipCount":12},"specials":{"count":0,"items":[]},"hereNow":{"count":0,"groups":[]},"referralId":"v-1383781076"},{"id":"4b75429cf964a5203f032ee3","name":"European School of Management & Technology","contact":{},"location":{"address":"Schloßplatz 1","lat":52.515692020531276,"lng":13.401002883911133,"distance":128,"postalCode":"10178","cc":"DE","city":"Berlin","state":"BE","country":"Germany"},"categories":[{"id":"4bf58dd8d48988d1ad941735","name":"Trade School","pluralName":"Trade Schools","shortName":"Trade School","icon":{"prefix":"https:\/\/ss1.4sqi.net\/img\/categories_v2\/education\/tradeschool_","suffix":".png"},"primary":true}],"verified":false,"restricted":true,"stats":{"checkinsCount":389,"usersCount":162,"tipCount":1},"specials":{"count":0,"items":[]},"hereNow":{"count":0,"groups":[]},"referralId":"v-1383781076"},{"id":"4d8f5ec6d4ec8cfac1a98989","name":"Schinkelplatz","contact":{},"location":{"address":"Unterwasserstraße","lat":52.516661462978405,"lng":13.398462557110303,"distance":104,"postalCode":"10117","cc":"DE","city":"Berlin","state":"Berlin","country":"Germany"},"categories":[{"id":"4bf58dd8d48988d164941735","name":"Plaza","pluralName":"Plazas","shortName":"Plaza","icon":{"prefix":"https:\/\/ss1.4sqi.net\/img\/categories_v2\/parks_outdoors\/plaza_","suffix":".png"},"primary":true}],"verified":false,"restricted":true,"stats":{"checkinsCount":156,"usersCount":103,"tipCount":2},"specials":{"count":0,"items":[]},"hereNow":{"count":0,"groups":[]},"referralId":"v-1383781076"},{"id":"4bc769782f94d13a71e0117f","name":"CHIPPS","contact":{"phone":"+493036444588","formattedPhone":"+49 30 36444588"},"location":{"address":"Jägerstraße 35","lat":52.514498295573624,"lng":13.397409270774094,"distance":298,"postalCode":"10117","cc":"DE","city":"Berlin","state":"Berlin","country":"Germany"},"categories":[{"id":"4bf58dd8d48988d1c4941735","name":"Restaurant","pluralName":"Restaurants","shortName":"Restaurant","icon":{"prefix":"https:\/\/ss1.4sqi.net\/img\/categories_v2\/food\/default_","suffix":".png"},"primary":true}],"verified":false,"restricted":true,"stats":{"checkinsCount":1068,"usersCount":775,"tipCount":45},"url":"http:\/\/www.chipps.eu","specials":{"count":0,"items":[]},"hereNow":{"count":0,"groups":[]},"referralId":"v-1383781076"},{"id":"4e71b6bdae6067986e9646f0","name":"Quadriga Forum","contact":{},"location":{"address":"Werderscher Markt 13","lat":52.515216,"lng":13.396967,"distance":261,"postalCode":"10117","cc":"DE","city":"Berlin","state":"BE","country":"Germany"},"categories":[{"id":"4bf58dd8d48988d171941735","name":"Event Space","pluralName":"Event Spaces","shortName":"Event Space","icon":{"prefix":"https:\/\/ss1.4sqi.net\/img\/categories_v2\/building\/eventspace_","suffix":".png"},"primary":true}],"verified":false,"restricted":true,"stats":{"checkinsCount":611,"usersCount":324,"tipCount":1},"specials":{"count":0,"items":[]},"hereNow":{"count":0,"groups":[]},"referralId":"v-1383781076"},{"id":"4adcda7df964a520b04721e3","name":"Neue Wache","contact":{},"location":{"address":"Unter den Linden 4","lat":52.51773554066627,"lng":13.395552635192871,"distance":323,"postalCode":"10117","cc":"DE","city":"Berlin","state":"BE","country":"Germany"},"categories":[{"id":"4bf58dd8d48988d12d941735","name":"Monument \/ Landmark","pluralName":"Monuments \/ Landmarks","shortName":"Landmark","icon":{"prefix":"https:\/\/ss1.4sqi.net\/img\/categories_v2\/building\/government_monument_","suffix":".png"},"primary":true}],"verified":false,"restricted":true,"stats":{"checkinsCount":764,"usersCount":672,"tipCount":6},"url":"http:\/\/de.wikipedia.org\/wiki\/Neue_Wache","specials":{"count":0,"items":[]},"hereNow":{"count":0,"groups":[]},"referralId":"v-1383781076"},{"id":"4c18ee7e4ff90f47661b0f49","name":"Esmt","contact":{},"location":{"lat":52.51612437758251,"lng":13.401993624389661,"distance":147,"cc":"DE","city":"Berlin","state":"Berlin","country":"Germany"},"categories":[{"id":"4bf58dd8d48988d198941735","name":"College Academic Building","pluralName":"College Academic Buildings","shortName":"Academic Building","icon":{"prefix":"https:\/\/ss1.4sqi.net\/img\/categories_v2\/education\/academicbuilding_","suffix":".png"},"primary":true}],"verified":false,"restricted":true,"stats":{"checkinsCount":93,"usersCount":56,"tipCount":3},"specials":{"count":0,"items":[]},"hereNow":{"count":0,"groups":[]},"referralId":"v-1383781076"},{"id":"4dfafd2618a8fc7fb43e81df","name":"Quadriga Campus","contact":{"phone":"+493044729400","formattedPhone":"+49 30 44729400"},"location":{"address":"Werderscher Markt 13","lat":52.51513147922454,"lng":13.39727807409641,"distance":251,"postalCode":"10117","cc":"DE","city":"Berlin","state":"Berlin","country":"Germany"},"categories":[{"id":"4bf58dd8d48988d127941735","name":"Conference Room","pluralName":"Conference Rooms","shortName":"Conference room","icon":{"prefix":"https:\/\/ss1.4sqi.net\/img\/categories_v2\/building\/office_conferenceroom_","suffix":".png"},"primary":true}],"verified":false,"restricted":true,"stats":{"checkinsCount":219,"usersCount":44,"tipCount":0},"specials":{"count":0,"items":[]},"hereNow":{"count":0,"groups":[]},"referralId":"v-1383781076"},{"id":"524f0a5211d2631dabad42a4","name":"Berlin Dome","contact":{},"location":{"lat":52.51766592756874,"lng":13.398546482177357,"distance":148,"cc":"DE","country":"Germany"},"categories":[{"id":"4bf58dd8d48988d132941735","name":"Church","pluralName":"Churches","shortName":"Church","icon":{"prefix":"https:\/\/ss1.4sqi.net\/img\/categories_v2\/building\/religious_church_","suffix":".png"},"primary":true}],"verified":false,"restricted":true,"stats":{"checkinsCount":7,"usersCount":7,"tipCount":0},"specials":{"count":0,"items":[]},"hereNow":{"count":0,"groups":[]},"referralId":"v-1383781076"},{"id":"4cb7fa694c60a093bca035ca","name":"Quadriga Hochschule Berlin","contact":{},"location":{"address":"Werderscher Markt 13","lat":52.51515056527079,"lng":13.397261846602623,"distance":250,"cc":"DE","city":"Berlin","state":"Germany","country":"Germany"},"categories":[{"id":"4bf58dd8d48988d19a941735","name":"College Communications Building","pluralName":"College Communications Buildings","shortName":"Communications","icon":{"prefix":"https:\/\/ss1.4sqi.net\/img\/categories_v2\/education\/collegeacademicbuildings_communications_","suffix":".png"},"primary":true}],"verified":false,"restricted":true,"stats":{"checkinsCount":263,"usersCount":49,"tipCount":1},"specials":{"count":0,"items":[]},"hereNow":{"count":0,"groups":[]},"referralId":"v-1383781076"},{"id":"4ae9613af964a520c9b421e3","name":"Hauptstadtrepräsentanz Deutsche Telekom AG","contact":{},"location":{"address":"Französische Straße 33","lat":52.514901,"lng":13.396414,"distance":312,"postalCode":"10117","cc":"DE","city":"Berlin","state":"Germany","country":"Germany"},"categories":[{"id":"4bf58dd8d48988d173941735","name":"Auditorium","pluralName":"Auditoriums","shortName":"Auditorium","icon":{"prefix":"https:\/\/ss1.4sqi.net\/img\/categories_v2\/building\/auditorium_","suffix":".png"},"primary":true}],"verified":false,"restricted":true,"stats":{"checkinsCount":768,"usersCount":468,"tipCount":2},"specials":{"count":0,"items":[]},"hereNow":{"count":0,"groups":[]},"referralId":"v-1383781076"},{"id":"500fbae1e4b06b19286e62d2","name":"Café im Zeughaus (DHM)","contact":{},"location":{"address":"Unter den Linden 2","lat":52.51794445749753,"lng":13.397676944732666,"distance":212,"postalCode":"10117","cc":"DE","city":"Berlin","state":"Berlin","country":"Germany"},"categories":[{"id":"4bf58dd8d48988d10d941735","name":"German Restaurant","pluralName":"German Restaurants","shortName":"German","icon":{"prefix":"https:\/\/ss1.4sqi.net\/img\/categories_v2\/food\/german_","suffix":".png"},"primary":true}],"verified":false,"restricted":true,"stats":{"checkinsCount":91,"usersCount":87,"tipCount":3},"url":"http:\/\/www.koflerkompanie.com\/de\/restaurants_cafedhm.html","specials":{"count":0,"items":[]},"hereNow":{"count":0,"groups":[]},"referralId":"v-1383781076"},{"id":"4b7556a3f964a52013072ee3","name":"Hauptstadtrepräsentanz Bertelsmann AG","contact":{},"location":{"address":"Unter den Linden 1","lat":52.517535,"lng":13.397837,"distance":175,"postalCode":"10117","cc":"DE","city":"Berlin","state":"Berlin","country":"Germany"},"categories":[{"id":"4bf58dd8d48988d124941735","name":"Office","pluralName":"Offices","shortName":"Office","icon":{"prefix":"https:\/\/ss1.4sqi.net\/img\/categories_v2\/building\/default_","suffix":".png"},"primary":true}],"verified":false,"restricted":true,"stats":{"checkinsCount":560,"usersCount":350,"tipCount":5},"specials":{"count":0,"items":[]},"hereNow":{"count":0,"groups":[]},"referralId":"v-1383781076"},{"id":"4da856e304376c33688549b1","name":"Rathausbrücke","contact":{},"location":{"address":"Rathausstr.","lat":52.517010852708545,"lng":13.404006958007812,"distance":274,"postalCode":"10178","cc":"DE","city":"Berlin","state":"BE","country":"Germany"},"categories":[{"id":"4bf58dd8d48988d1df941735","name":"Bridge","pluralName":"Bridges","shortName":"Bridge","icon":{"prefix":"https:\/\/ss1.4sqi.net\/img\/categories_v2\/parks_outdoors\/bridge_","suffix":".png"},"primary":true}],"verified":false,"restricted":true,"stats":{"checkinsCount":312,"usersCount":131,"tipCount":0},"url":"http:\/\/de.wikipedia.org\/wiki\/Rathausbrücke_(Berlin)","specials":{"count":0,"items":[]},"hereNow":{"count":0,"groups":[]},"referralId":"v-1383781076"},{"id":"4c4046e9af052d7f287e7b79","name":"Berliner Stadtbibliothek | ZLB","contact":{},"location":{"address":"Breite Str. 30-36","lat":52.51557707002007,"lng":13.404073440977019,"distance":301,"postalCode":"10178","cc":"DE","city":"Berlin","state":"Berlin","country":"Germany"},"categories":[{"id":"4bf58dd8d48988d12f941735","name":"Library","pluralName":"Libraries","shortName":"Library","icon":{"prefix":"https:\/\/ss1.4sqi.net\/img\/categories_v2\/building\/library_","suffix":".png"},"primary":true}],"verified":false,"restricted":true,"stats":{"checkinsCount":335,"usersCount":154,"tipCount":5},"url":"http:\/\/www.zlb.de","specials":{"count":0,"items":[]},"hereNow":{"count":0,"groups":[]},"referralId":"v-1383781076"},{"id":"4bab615df964a520d9a43ae3","name":"Bandy Brooks","contact":{"phone":"+493027908551","formattedPhone":"+49 30 27908551"},"location":{"address":"Karl-Liebknecht-Straße 1","lat":52.519176,"lng":13.402541,"distance":328,"postalCode":"10178","cc":"DE","city":"Berlin","state":"Berlin","country":"Germany"},"categories":[{"id":"4bf58dd8d48988d1c9941735","name":"Ice Cream Shop","pluralName":"Ice Cream Shops","shortName":"Ice Cream","icon":{"prefix":"https:\/\/ss1.4sqi.net\/img\/categories_v2\/food\/icecream_","suffix":".png"},"primary":true}],"verified":false,"restricted":true,"stats":{"checkinsCount":238,"usersCount":189,"tipCount":6},"url":"http:\/\/www.bandybrooks.org","specials":{"count":0,"items":[]},"hereNow":{"count":0,"groups":[]},"referralId":"v-1383781076"},{"id":"507faaf3f31c44e07e35b2e6","name":"Atrium Lobby Lounge & Bar","contact":{"phone":"+4930238280","formattedPhone":"+49 30 238280"},"location":{"address":"Karl Liebknecht Strasse 3","crossStreet":"at Radisson Blu Hotel, Berlin","lat":52.5195113020674,"lng":13.4027624130249,"distance":367,"postalCode":"10178","cc":"DE","city":"Berlin","country":"Germany"},"categories":[{"id":"4bf58dd8d48988d1d5941735","name":"Hotel Bar","pluralName":"Hotel Bars","shortName":"Hotel Bar","icon":{"prefix":"https:\/\/ss1.4sqi.net\/img\/categories_v2\/travel\/hotel_bar_","suffix":".png"},"primary":true}],"verified":true,"restricted":true,"stats":{"checkinsCount":467,"usersCount":211,"tipCount":7},"url":"http:\/\/www.radissonblu.com\/hotel-berlin","specials":{"count":0,"items":[]},"hereNow":{"count":0,"groups":[]},"storeId":"","referralId":"v-1383781076"},{"id":"4bc46a7474a9a59309bfd5f6","name":"Einstein Coffeeshop","contact":{},"location":{"address":"Am Lustgarten","crossStreet":"Berliner Dom","lat":52.51865511085633,"lng":13.401237234688223,"distance":236,"postalCode":"10178","cc":"DE","city":"Berlin","state":"BE","country":"Germany"},"categories":[{"id":"4bf58dd8d48988d1e0931735","name":"Coffee Shop","pluralName":"Coffee Shops","shortName":"Coffee Shop","icon":{"prefix":"https:\/\/ss1.4sqi.net\/img\/categories_v2\/food\/coffeeshop_","suffix":".png"},"primary":true}],"verified":false,"restricted":true,"stats":{"checkinsCount":171,"usersCount":143,"tipCount":4},"specials":{"count":0,"items":[]},"hereNow":{"count":0,"groups":[]},"referralId":"v-1383781076"},{"id":"4ba9f250f964a5203f3f3ae3","name":"Restaurant HEat","contact":{"phone":"+4930238283472","formattedPhone":"+49 30 238283472"},"location":{"address":"Karl-Liebknecht-Straße 3","crossStreet":"at Radisson Blu Hotel, Berlin","lat":52.51938073382084,"lng":13.402161598205566,"distance":335,"postalCode":"10178","cc":"DE","city":"Berlin","state":"Germany","country":"Germany"},"categories":[{"id":"4bf58dd8d48988d143941735","name":"Breakfast Spot","pluralName":"Breakfast Spots","shortName":"Breakfast","icon":{"prefix":"https:\/\/ss1.4sqi.net\/img\/categories_v2\/food\/breakfast_","suffix":".png"},"primary":true}],"verified":true,"restricted":true,"stats":{"checkinsCount":558,"usersCount":345,"tipCount":14},"url":"http:\/\/www.radissonblu.com\/hotel-berlin","specials":{"count":0,"items":[]},"hereNow":{"count":0,"groups":[]},"storeId":"","referralId":"v-1383781076"},{"id":"526d2af0498e6fb370340405","name":"Andy's Diner & Bar Berlin","contact":{},"location":{"lat":52.517276,"lng":13.40225,"distance":166,"cc":"DE","country":"Germany"},"categories":[{"id":"4bf58dd8d48988d147941735","name":"Diner","pluralName":"Diners","shortName":"Diner","icon":{"prefix":"https:\/\/ss1.4sqi.net\/img\/categories_v2\/food\/diner_","suffix":".png"},"primary":true}],"verified":false,"restricted":true,"stats":{"checkinsCount":2,"usersCount":1,"tipCount":0},"specials":{"count":0,"items":[]},"hereNow":{"count":0,"groups":[]},"referralId":"v-1383781076"},{"id":"4facdd2ee4b0d8a3db7c01da","name":"depak - Deutsche Presseakademie","contact":{"phone":"+493044729500","formattedPhone":"+49 30 44729500","twitter":"prkarriere"},"location":{"address":"Werderschen Markt 13","lat":52.51517,"lng":13.397259,"distance":249,"cc":"DE","city":"Berlin","country":"Germany"},"categories":[{"id":"4bf58dd8d48988d1ff931735","name":"Convention Center","pluralName":"Convention Centers","shortName":"Convention Center","icon":{"prefix":"https:\/\/ss1.4sqi.net\/img\/categories_v2\/building\/conventioncenter_","suffix":".png"},"primary":true}],"verified":false,"restricted":true,"stats":{"checkinsCount":90,"usersCount":37,"tipCount":2},"url":"http:\/\/www.depak.de","specials":{"count":0,"items":[]},"hereNow":{"count":0,"groups":[]},"referralId":"v-1383781076"},{"id":"4b65cbcef964a52038002be3","name":"Allegretto","contact":{"phone":"+493028042307","formattedPhone":"+49 30 28042307"},"location":{"address":"Sankt-Wolfgang Str. 2","lat":52.52031300601141,"lng":13.401278411765661,"distance":415,"postalCode":"10178","cc":"DE","city":"Berlin","country":"Germany"},"categories":[{"id":"4bf58dd8d48988d16d941735","name":"Café","pluralName":"Cafés","shortName":"Café","icon":{"prefix":"https:\/\/ss1.4sqi.net\/img\/categories_v2\/food\/cafe_","suffix":".png"},"primary":true}],"verified":false,"restricted":true,"stats":{"checkinsCount":500,"usersCount":444,"tipCount":24},"specials":{"count":0,"items":[]},"hereNow":{"count":0,"groups":[]},"referralId":"v-1383781076"},{"id":"4adcda7df964a520614721e3","name":"Kronprinzenpalais","contact":{},"location":{"address":"Unter den LInden 7","lat":52.51717407175992,"lng":13.396604061126709,"distance":236,"postalCode":"10117","cc":"DE","city":"Berlin","state":"Berlin","country":"Germany"},"categories":[{"id":"4bf58dd8d48988d12d941735","name":"Monument \/ Landmark","pluralName":"Monuments \/ Landmarks","shortName":"Landmark","icon":{"prefix":"https:\/\/ss1.4sqi.net\/img\/categories_v2\/building\/government_monument_","suffix":".png"},"primary":true}],"verified":false,"restricted":true,"stats":{"checkinsCount":43,"usersCount":35,"tipCount":0},"url":"http:\/\/de.wikipedia.org\/wiki\/Kronprinzenpalais_(Berlin)","specials":{"count":0,"items":[]},"hereNow":{"count":0,"groups":[]},"referralId":"v-1383781076"},{"id":"513b55d2e4b0bfae1adb24d0","name":"Angie's Grill-Imbiss","contact":{},"location":{"lat":52.517767,"lng":13.398202,"distance":172,"cc":"DE","country":"Germany"},"categories":[{"id":"4bf58dd8d48988d1cb941735","name":"Food Truck","pluralName":"Food Trucks","shortName":"Food Truck","icon":{"prefix":"https:\/\/ss1.4sqi.net\/img\/categories_v2\/food\/streetfood_","suffix":".png"},"primary":true}],"verified":false,"restricted":true,"stats":{"checkinsCount":9,"usersCount":9,"tipCount":0},"specials":{"count":0,"items":[]},"hereNow":{"count":0,"groups":[]},"referralId":"v-1383781076"},{"id":"4df3b7f96284fefe8fc364e8","name":"Wrap Me","contact":{},"location":{"address":"St.-Wolfgang-Str. 2","lat":52.51985616995437,"lng":13.401571631372253,"distance":370,"postalCode":"10178","cc":"DE","city":"Berlin","country":"Germany"},"categories":[{"id":"4bf58dd8d48988d1c5941735","name":"Sandwich Place","pluralName":"Sandwich Places","shortName":"Sandwiches","icon":{"prefix":"https:\/\/ss1.4sqi.net\/img\/categories_v2\/food\/sandwiches_","suffix":".png"},"primary":true}],"verified":false,"restricted":true,"stats":{"checkinsCount":272,"usersCount":221,"tipCount":7},"url":"http:\/\/wrapme.de","specials":{"count":0,"items":[]},"hereNow":{"count":0,"groups":[]},"referralId":"v-1383781076"},{"id":"4c87c4cd32f2a14343acf027","name":"Schinkelsche Bauakademie","contact":{},"location":{"address":"Werderscher Markt","lat":52.51594012069647,"lng":13.398975133895874,"distance":106,"postalCode":"10117","cc":"DE","city":"Berlin","state":"BE","country":"Germany"},"categories":[{"id":"4bf58dd8d48988d130941735","name":"Building","pluralName":"Buildings","shortName":"Building","icon":{"prefix":"https:\/\/ss1.4sqi.net\/img\/categories_v2\/building\/default_","suffix":".png"},"primary":true}],"verified":false,"restricted":true,"stats":{"checkinsCount":25,"usersCount":23,"tipCount":2},"specials":{"count":0,"items":[]},"hereNow":{"count":0,"groups":[]},"referralId":"v-1383781076"},{"id":"4f2530f0e4b0020c2f8d2f97","name":"Liebknechtbrücke","contact":{},"location":{"address":"Karl-Liebknecht-Str.","lat":52.51866260152835,"lng":13.40233325958252,"distance":272,"postalCode":"10178","cc":"DE","city":"Berlin","state":"BE","country":"Germany"},"categories":[{"id":"4bf58dd8d48988d1df941735","name":"Bridge","pluralName":"Bridges","shortName":"Bridge","icon":{"prefix":"https:\/\/ss1.4sqi.net\/img\/categories_v2\/parks_outdoors\/bridge_","suffix":".png"},"primary":true}],"verified":false,"restricted":true,"stats":{"checkinsCount":163,"usersCount":133,"tipCount":0},"specials":{"count":0,"items":[]},"hereNow":{"count":0,"groups":[]},"referralId":"v-1383781076"},{"id":"4be688ea910020a1386bd414","name":"Museumscafe","contact":{},"location":{"address":"Unter den Linden 2","lat":52.51794219016876,"lng":13.397827148437111,"distance":204,"cc":"DE","city":"Berlin","state":"Berlin","country":"Germany"},"categories":[],"verified":false,"restricted":true,"stats":{"checkinsCount":22,"usersCount":21,"tipCount":1},"specials":{"count":0,"items":[]},"hereNow":{"count":0,"groups":[]},"referralId":"v-1383781076"},{"id":"51e41398498e3f6d1aa472b4","name":"H Lustgarten","contact":{},"location":{"lat":52.51836,"lng":13.401387,"distance":210,"cc":"DE","country":"Germany"},"categories":[{"id":"4bf58dd8d48988d1fe931735","name":"Bus Station","pluralName":"Bus Stations","shortName":"Bus Station","icon":{"prefix":"https:\/\/ss1.4sqi.net\/img\/categories_v2\/travel\/busstation_","suffix":".png"},"primary":true}],"verified":false,"restricted":true,"stats":{"checkinsCount":3,"usersCount":3,"tipCount":0},"specials":{"count":0,"items":[]},"hereNow":{"count":0,"groups":[]},"referralId":"v-1383781076"},{"id":"4dc69e862271f2705149bb6b","name":"Kunstmarkt am Zeughaus","contact":{},"location":{"address":"Am Zeughaus","lat":52.51838840246553,"lng":13.397709131240845,"distance":246,"cc":"DE","city":"Berlin","state":"Berlin","country":"Germany"},"categories":[{"id":"4bf58dd8d48988d1f7941735","name":"Flea Market","pluralName":"Flea Markets","shortName":"Flea Market","icon":{"prefix":"https:\/\/ss1.4sqi.net\/img\/categories_v2\/shops\/fleamarket_","suffix":".png"},"primary":true}],"verified":false,"restricted":true,"stats":{"checkinsCount":67,"usersCount":65,"tipCount":1},"specials":{"count":0,"items":[]},"hereNow":{"count":0,"groups":[]},"referralId":"v-1383781076"},{"id":"4b5f16ddf964a52078a529e3","name":"Dr.  Felix Zaritzki","contact":{},"location":{"address":"Jaegerstrasse 41","crossStreet":"Oberwallstrasse","lat":52.514497698099774,"lng":13.397117713872843,"distance":310,"postalCode":"10117","cc":"DE","city":"Berlin","state":"Berlin","country":"Germany"},"categories":[{"id":"4bf58dd8d48988d178941735","name":"Dentist's Office","pluralName":"Dentist's Offices","shortName":"Dentist's Office","icon":{"prefix":"https:\/\/ss1.4sqi.net\/img\/categories_v2\/building\/medical_dentist_","suffix":".png"},"primary":true}],"verified":false,"restricted":true,"stats":{"checkinsCount":63,"usersCount":21,"tipCount":1},"specials":{"count":0,"items":[]},"hereNow":{"count":0,"groups":[]},"referralId":"v-1383781076"},{"id":"4adcda80f964a520394821e3","name":"Friedrichswerdersche Kirche","contact":{},"location":{"address":"Werderscher Markt","lat":52.51584871553543,"lng":13.397516012191772,"distance":191,"postalCode":"10117","cc":"DE","city":"Berlin","state":"Berlin","country":"Germany"},"categories":[{"id":"4bf58dd8d48988d18f941735","name":"Art Museum","pluralName":"Art Museums","shortName":"Art Museum","icon":{"prefix":"https:\/\/ss1.4sqi.net\/img\/categories_v2\/arts_entertainment\/museum_art_","suffix":".png"},"primary":true}],"verified":false,"restricted":true,"stats":{"checkinsCount":112,"usersCount":93,"tipCount":4},"url":"http:\/\/de.wikipedia.org\/wiki\/Friedrichswerdersche_Kirche","specials":{"count":0,"items":[]},"hereNow":{"count":0,"groups":[]},"referralId":"v-1383781076"},{"id":"4dbc1fa1a86e0e98a1daa36d","name":"Schinkel Pavillion","contact":{},"location":{"address":"Oberwallstr. 1","lat":52.516260037262676,"lng":13.396625518798828,"distance":233,"postalCode":"10117","cc":"DE","city":"Berlin","state":"Berlin","country":"Germany"},"categories":[{"id":"4bf58dd8d48988d1e2931735","name":"Art Gallery","pluralName":"Art Galleries","shortName":"Art Gallery","icon":{"prefix":"https:\/\/ss1.4sqi.net\/img\/categories_v2\/arts_entertainment\/artgallery_","suffix":".png"},"primary":true}],"verified":false,"restricted":true,"stats":{"checkinsCount":49,"usersCount":32,"tipCount":0},"url":"http:\/\/www.schinkelpavillon.de","specials":{"count":0,"items":[]},"hereNow":{"count":0,"groups":[]},"referralId":"v-1383781076"},{"id":"4cbc93f0a33bb1f7d1979afd","name":"DDR-Restaurant Domklause","contact":{"phone":"+4930847123737","formattedPhone":"+49 30 847123737"},"location":{"address":"Karl-Liebknecht-Straße 1","lat":52.51982466427605,"lng":13.401603698730469,"distance":367,"postalCode":"10178","cc":"DE","city":"Berlin","state":"Berlin","country":"Germany"},"categories":[{"id":"4bf58dd8d48988d10d941735","name":"German Restaurant","pluralName":"German Restaurants","shortName":"German","icon":{"prefix":"https:\/\/ss1.4sqi.net\/img\/categories_v2\/food\/german_","suffix":".png"},"primary":true}],"verified":true,"restricted":true,"stats":{"checkinsCount":710,"usersCount":384,"tipCount":14},"url":"http:\/\/www.ddr-restaurant.de","specials":{"count":1,"items":[{"id":"4dc95b76b3ada60bb0f511c1","type":"frequency","message":"Get 10% discount on your own bill when you're checked in!","description":"Unlocked every check-in","icon":"check-in","title":"Check-in Special","provider":"foursquare","redemption":"standard"}]},"hereNow":{"count":0,"groups":[]},"venuePage":{"id":"48098994"},"storeId":"","referralId":"v-1383781076"},{"id":"4bced9e9937ca593b114af92","name":"BMG Headoffice","contact":{},"location":{"lat":52.51995523120331,"lng":13.401947021484375,"distance":389,"cc":"DE","country":"Germany"},"categories":[{"id":"4bf58dd8d48988d124941735","name":"Office","pluralName":"Offices","shortName":"Office","icon":{"prefix":"https:\/\/ss1.4sqi.net\/img\/categories_v2\/building\/default_","suffix":".png"},"primary":true}],"verified":false,"restricted":true,"stats":{"checkinsCount":322,"usersCount":24,"tipCount":0},"specials":{"count":0,"items":[]},"hereNow":{"count":0,"groups":[]},"referralId":"v-1383781076"},{"id":"4d987b59af3d236a52d03cc7","name":"Bootstour auf der Spree","contact":{},"location":{"lat":52.52018348,"lng":13.401058,"distance":397,"cc":"DE","country":"Germany"},"categories":[{"id":"4bf58dd8d48988d12d951735","name":"Boat or Ferry","pluralName":"Boats or Ferries","shortName":"Boat \/ Ferry","icon":{"prefix":"https:\/\/ss1.4sqi.net\/img\/categories_v2\/travel\/boat_","suffix":".png"},"primary":true}],"verified":false,"restricted":true,"stats":{"checkinsCount":327,"usersCount":235,"tipCount":0},"specials":{"count":0,"items":[]},"hereNow":{"count":0,"groups":[]},"referralId":"v-1383781076"},{"id":"4d32fd98c6cba35d3b94267a","name":"Julchen Hoppe","contact":{},"location":{"address":"Rathausstr. 25","lat":52.51730464656447,"lng":13.404865264892578,"distance":337,"postalCode":"10178","cc":"DE","city":"Berlin","state":"Berlin","country":"Germany"},"categories":[{"id":"4bf58dd8d48988d10d941735","name":"German Restaurant","pluralName":"German Restaurants","shortName":"German","icon":{"prefix":"https:\/\/ss1.4sqi.net\/img\/categories_v2\/food\/german_","suffix":".png"},"primary":true}],"verified":false,"restricted":true,"stats":{"checkinsCount":75,"usersCount":62,"tipCount":3},"url":"http:\/\/www.prostmahlzeit.de\/julchenhoppe\/index.html","specials":{"count":0,"items":[]},"hereNow":{"count":0,"groups":[]},"referralId":"v-1383781076"}]}}